{
"type": "FeatureCollection",
"name": "Cities",
"crs": { "type": "name", "properties": { "name": "urn:ogc:def:crs:OGC:1.3:CRS84" } },
"features": [
{ "type": "Feature", "properties": { "NAME": "Mobile", "STATE_NAME": "Alabama", "STATE_ABBR": "AL", "CityState": "Mobile, AL", "Image": "mob" }, "geometry": { "type": "Point", "coordinates": [ -88.043054135642734, 30.69435656369113 ] } },
{ "type": "Feature", "properties": { "NAME": "Barrow", "STATE_NAME": "Alaska", "STATE_ABBR": "AK", "CityState": "Barrow, AK", "Image": "bar" }, "geometry": { "type": "Point", "coordinates": [ -156.79208762847361, 71.290139440850936 ] } },
{ "type": "Feature", "properties": { "NAME": "Fairbanks", "STATE_NAME": "Alaska", "STATE_ABBR": "AK", "CityState": "Fairbanks, AK", "Image": "fak" }, "geometry": { "type": "Point", "coordinates": [ -147.718813080294836, 64.837354851740912 ] } },
{ "type": "Feature", "properties": { "NAME": "Montgomery", "STATE_NAME": "Alabama", "STATE_ABBR": "AL", "CityState": "Montgomery, AL", "Image": "mal" }, "geometry": { "type": "Point", "coordinates": [ -86.299968960295402, 32.36680516152888 ] } },
{ "type": "Feature", "properties": { "NAME": "Hot Springs", "STATE_NAME": "Arkansas", "STATE_ABBR": "AR", "CityState": "Hot Springs, AR", "Image": "hsa" }, "geometry": { "type": "Point", "coordinates": [ -93.055179522593235, 34.503700411030131 ] } },
{ "type": "Feature", "properties": { "NAME": "Oxnard", "STATE_NAME": "California", "STATE_ABBR": "CA", "CityState": "Oxnard, CA", "Image": "oxc" }, "geometry": { "type": "Point", "coordinates": [ -119.177051603119253, 34.19750482484514 ] } },
{ "type": "Feature", "properties": { "NAME": "Santa Monica", "STATE_NAME": "California", "STATE_ABBR": "CA", "CityState": "Santa Monica, CA", "Image": "smc" }, "geometry": { "type": "Point", "coordinates": [ -118.491191138654841, 34.019454226775835 ] } },
{ "type": "Feature", "properties": { "NAME": "Torrance", "STATE_NAME": "California", "STATE_ABBR": "CA", "CityState": "Torrance, CA", "Image": "toc" }, "geometry": { "type": "Point", "coordinates": [ -118.340628798952736, 33.835849124070599 ] } },
{ "type": "Feature", "properties": { "NAME": "Inglewood", "STATE_NAME": "California", "STATE_ABBR": "CA", "CityState": "Inglewood, CA", "Image": "inc" }, "geometry": { "type": "Point", "coordinates": [ -118.353131152815251, 33.961680093965832 ] } },
{ "type": "Feature", "properties": { "NAME": "Tucson", "STATE_NAME": "Arizona", "STATE_ABBR": "AZ", "CityState": "Tucson, AZ", "Image": "tuc" }, "geometry": { "type": "Point", "coordinates": [ -110.926478990963687, 32.221742857549877 ] } },
{ "type": "Feature", "properties": { "NAME": "San Diego", "STATE_NAME": "California", "STATE_ABBR": "CA", "CityState": "San Diego, CA", "Image": "sd" }, "geometry": { "type": "Point", "coordinates": [ -117.157255079324912, 32.715329218660834 ] } },
{ "type": "Feature", "properties": { "NAME": "Santa Barbara", "STATE_NAME": "California", "STATE_ABBR": "CA", "CityState": "Santa Barbara, CA", "Image": "sbc" }, "geometry": { "type": "Point", "coordinates": [ -119.698190128373525, 34.420830513042034 ] } },
{ "type": "Feature", "properties": { "NAME": "Los Angeles", "STATE_NAME": "California", "STATE_ABBR": "CA", "CityState": "Los Angeles, CA", "Image": "la" }, "geometry": { "type": "Point", "coordinates": [ -118.243684895462508, 34.052234247637159 ] } },
{ "type": "Feature", "properties": { "NAME": "Scrantion", "STATE_NAME": "Pennsylvania", "STATE_ABBR": "PA", "CityState": "Scranton, PA", "Image": "scr" }, "geometry": { "type": "Point", "coordinates": [ -75.65824155136805, 41.40777689406233 ] } },
{ "type": "Feature", "properties": { "NAME": "San Carlos", "STATE_NAME": "California", "STATE_ABBR": "CA", "CityState": "San Carlos, CA", "Image": "scc" }, "geometry": { "type": "Point", "coordinates": [ -122.260522188857408, 37.507159143892878 ] } },
{ "type": "Feature", "properties": { "NAME": "San Francisco", "STATE_NAME": "California", "STATE_ABBR": "CA", "CityState": "San Francisco, CA", "Image": "sf" }, "geometry": { "type": "Point", "coordinates": [ -122.419415457718415, 37.774929478245575 ] } },
{ "type": "Feature", "properties": { "NAME": "Greeley", "STATE_NAME": "Colorado", "STATE_ABBR": "CO", "CityState": "Greeley, CO", "Image": "gco" }, "geometry": { "type": "Point", "coordinates": [ -104.709132221337029, 40.423314143040095 ] } },
{ "type": "Feature", "properties": { "NAME": "Denver", "STATE_NAME": "Colorado", "STATE_ABBR": "CO", "CityState": "Denver, CO", "Image": "den" }, "geometry": { "type": "Point", "coordinates": [ -104.98470336491286, 39.739153638444606 ] } },
{ "type": "Feature", "properties": { "NAME": "Colorado Springs", "STATE_NAME": "Colorado", "STATE_ABBR": "CO", "CityState": "Colorado Springs, CO", "Image": "csp" }, "geometry": { "type": "Point", "coordinates": [ -104.821363346721995, 38.833881631792337 ] } },
{ "type": "Feature", "properties": { "NAME": "Pueblo", "STATE_NAME": "Colorado", "STATE_ABBR": "CO", "CityState": "Pueblo, CO", "Image": "pco" }, "geometry": { "type": "Point", "coordinates": [ -104.609141038790781, 38.25444713174258 ] } },
{ "type": "Feature", "properties": { "NAME": "Bridgeport", "STATE_NAME": "Connecticut", "STATE_ABBR": "CT", "CityState": "Bridgeport, CT", "Image": "bpt" }, "geometry": { "type": "Point", "coordinates": [ -73.204834720729593, 41.167041122239596 ] } },
{ "type": "Feature", "properties": { "NAME": "Hartford", "STATE_NAME": "Connecticut", "STATE_ABBR": "CT", "CityState": "Hartford, CT", "Image": "hfd" }, "geometry": { "type": "Point", "coordinates": [ -72.685093182364085, 41.763711142561313 ] } },
{ "type": "Feature", "properties": { "NAME": "Washington", "STATE_NAME": "District of Columbia", "STATE_ABBR": "DC", "CityState": "Washington, DC", "Image": "wdc" }, "geometry": { "type": "Point", "coordinates": [ -77.036365792637326, 38.895111808843033 ] } },
{ "type": "Feature", "properties": { "NAME": "Coral Gables", "STATE_NAME": "Florida", "STATE_ABBR": "FL", "CityState": "Coral Gables, FL", "Image": "cgf" }, "geometry": { "type": "Point", "coordinates": [ -80.273866161778329, 25.724285911595214 ] } },
{ "type": "Feature", "properties": { "NAME": "Saint Petersburg", "STATE_NAME": "Florida", "STATE_ABBR": "FL", "CityState": "Saint Petersburg, FL", "Image": "spf" }, "geometry": { "type": "Point", "coordinates": [ -82.679266023933209, 27.770860678238172 ] } },
{ "type": "Feature", "properties": { "NAME": "Miami", "STATE_NAME": "Florida", "STATE_ABBR": "FL", "CityState": "Miami, FL", "Image": "mfl" }, "geometry": { "type": "Point", "coordinates": [ -80.193658973387727, 25.774265759039515 ] } },
{ "type": "Feature", "properties": { "NAME": "Augusta", "STATE_NAME": "Georgia", "STATE_ABBR": "GA", "CityState": "Augusta, GA", "Image": "aga" }, "geometry": { "type": "Point", "coordinates": [ -81.974837951438261, 33.470970155017156 ] } },
{ "type": "Feature", "properties": { "NAME": "Savannah", "STATE_NAME": "Georgia", "STATE_ABBR": "GA", "CityState": "Savannah, GA", "Image": "sga" }, "geometry": { "type": "Point", "coordinates": [ -81.099834269974224, 32.083540656524512 ] } },
{ "type": "Feature", "properties": { "NAME": "Dubuque", "STATE_NAME": "Iowa", "STATE_ABBR": "IA", "CityState": "Dubuque, IA", "Image": "dia" }, "geometry": { "type": "Point", "coordinates": [ -90.664571719458877, 42.50055831728551 ] } },
{ "type": "Feature", "properties": { "NAME": "Sioux City", "STATE_NAME": "Iowa", "STATE_ABBR": "IA", "CityState": "Sioux City, IA", "Image": "sci" }, "geometry": { "type": "Point", "coordinates": [ -96.400306845286437, 42.499994257753627 ] } },
{ "type": "Feature", "properties": { "NAME": "Boise", "STATE_NAME": "Idaho", "STATE_ABBR": "ID", "CityState": "Boise, ID", "Image": "bid" }, "geometry": { "type": "Point", "coordinates": [ -116.203450443552001, 43.613500255893598 ] } },
{ "type": "Feature", "properties": { "NAME": "Cedar Rapids", "STATE_NAME": "Iowa", "STATE_ABBR": "IA", "CityState": "Cedar Rapids, IA", "Image": "cri" }, "geometry": { "type": "Point", "coordinates": [ -91.644068298388831, 42.008332851200102 ] } },
{ "type": "Feature", "properties": { "NAME": "Evanston", "STATE_NAME": "Illinois", "STATE_ABBR": "IL", "CityState": "Evanston, IL", "Image": "eil" }, "geometry": { "type": "Point", "coordinates": [ -87.690058660889093, 42.041141348210381 ] } },
{ "type": "Feature", "properties": { "NAME": "Galesburg", "STATE_NAME": "Illinois", "STATE_ABBR": "IL", "CityState": "Galesburg, IL", "Image": "gil" }, "geometry": { "type": "Point", "coordinates": [ -90.371239571327479, 40.947815833932957 ] } },
{ "type": "Feature", "properties": { "NAME": "Moline", "STATE_NAME": "Illinois", "STATE_ABBR": "IL", "CityState": "Moline, IL", "Image": "mol" }, "geometry": { "type": "Point", "coordinates": [ -90.515134187640399, 41.506700322419796 ] } },
{ "type": "Feature", "properties": { "NAME": "Peoria", "STATE_NAME": "Illinois", "STATE_ABBR": "IL", "CityState": "Peoria, IL", "Image": "pil" }, "geometry": { "type": "Point", "coordinates": [ -89.588986349302303, 40.693648820829637 ] } },
{ "type": "Feature", "properties": { "NAME": "Rock Island", "STATE_NAME": "Illinois", "STATE_ABBR": "IL", "CityState": "Rock Island, IL", "Image": "rii" }, "geometry": { "type": "Point", "coordinates": [ -90.578747752134888, 41.509477078060748 ] } },
{ "type": "Feature", "properties": { "NAME": "Rockford", "STATE_NAME": "Illinois", "STATE_ABBR": "IL", "CityState": "Rockford, IL", "Image": "ril" }, "geometry": { "type": "Point", "coordinates": [ -89.093995220029328, 42.271131117498356 ] } },
{ "type": "Feature", "properties": { "NAME": "Fort Wayne", "STATE_NAME": "Indiana", "STATE_ABBR": "IN", "CityState": "Fort Wayne, IN", "Image": "fwi" }, "geometry": { "type": "Point", "coordinates": [ -85.128859686239139, 41.130604068504852 ] } },
{ "type": "Feature", "properties": { "NAME": "Lafayette", "STATE_NAME": "Indiana", "STATE_ABBR": "IN", "CityState": "Lafayette, IN", "Image": "lin" }, "geometry": { "type": "Point", "coordinates": [ -86.875286835672355, 40.416702213035762 ] } },
{ "type": "Feature", "properties": { "NAME": "South Bend", "STATE_NAME": "Indiana", "STATE_ABBR": "IN", "CityState": "South Bend, IN", "Image": "sbi" }, "geometry": { "type": "Point", "coordinates": [ -86.250006563602895, 41.683381250836248 ] } },
{ "type": "Feature", "properties": { "NAME": "Indianapolis", "STATE_NAME": "Indiana", "STATE_ABBR": "IN", "CityState": "Indianapolis, IN", "Image": "ind" }, "geometry": { "type": "Point", "coordinates": [ -86.158042343881363, 39.768376458512847 ] } },
{ "type": "Feature", "properties": { "NAME": "Chicago", "STATE_NAME": "Illinois", "STATE_ABBR": "IL", "CityState": "Chicago, IL", "Image": "chi" }, "geometry": { "type": "Point", "coordinates": [ -87.650052320553868, 41.850032945814966 ] } },
{ "type": "Feature", "properties": { "NAME": "Springfield", "STATE_NAME": "Illinois", "STATE_ABBR": "IL", "CityState": "Springfield, IL", "Image": "sil" }, "geometry": { "type": "Point", "coordinates": [ -89.643710719671219, 39.801717062166937 ] } },
{ "type": "Feature", "properties": { "NAME": "Wichita", "STATE_NAME": "Kansas", "STATE_ABBR": "KS", "CityState": "Wichita, KS", "Image": "wks" }, "geometry": { "type": "Point", "coordinates": [ -97.337544819169779, 37.692236066157385 ] } },
{ "type": "Feature", "properties": { "NAME": "Louisville", "STATE_NAME": "Kentucky", "STATE_ABBR": "KY", "CityState": "Louisville, KY", "Image": "lky" }, "geometry": { "type": "Point", "coordinates": [ -85.759407052510923, 38.254237534041565 ] } },
{ "type": "Feature", "properties": { "NAME": "Leavenworth", "STATE_NAME": "Kansas", "STATE_ABBR": "KS", "CityState": "Leavenworth, KS", "Image": "lks" }, "geometry": { "type": "Point", "coordinates": [ -94.922463752718173, 39.311111259832749 ] } },
{ "type": "Feature", "properties": { "NAME": "New Bedford", "STATE_NAME": "Massachusetts", "STATE_ABBR": "MA", "CityState": "New Bedford, MA", "Image": "nbm" }, "geometry": { "type": "Point", "coordinates": [ -70.934205045526539, 41.636215145747343 ] } },
{ "type": "Feature", "properties": { "NAME": "Boston", "STATE_NAME": "Massachusetts", "STATE_ABBR": "MA", "CityState": "Boston, MA", "Image": "bos" }, "geometry": { "type": "Point", "coordinates": [ -71.059773273279973, 42.358430877797744 ] } },
{ "type": "Feature", "properties": { "NAME": "Baltimore", "STATE_NAME": "Maryland", "STATE_ABBR": "MD", "CityState": "Baltimore, MD", "Image": "bal" }, "geometry": { "type": "Point", "coordinates": [ -76.61218938236388, 39.290384762369925 ] } },
{ "type": "Feature", "properties": { "NAME": "Detroit", "STATE_NAME": "Michigan", "STATE_ABBR": "MI", "CityState": "Detroit, MI", "Image": "det" }, "geometry": { "type": "Point", "coordinates": [ -83.045753729843497, 42.331427045080787 ] } },
{ "type": "Feature", "properties": { "NAME": "Battle Creek", "STATE_NAME": "Michigan", "STATE_ABBR": "MI", "CityState": "Battle Creek, MI", "Image": "bcm" }, "geometry": { "type": "Point", "coordinates": [ -85.179714280412512, 42.321152122078828 ] } },
{ "type": "Feature", "properties": { "NAME": "Benton Harbor", "STATE_NAME": "Michigan", "STATE_ABBR": "MI", "CityState": "Benton Harbor, MI", "Image": "bhm" }, "geometry": { "type": "Point", "coordinates": [ -86.454189326224977, 42.116706451755945 ] } },
{ "type": "Feature", "properties": { "NAME": "Jackson", "STATE_NAME": "Mississippi", "STATE_ABBR": "MS", "CityState": "Jackson, MS", "Image": "jms" }, "geometry": { "type": "Point", "coordinates": [ -90.180357276644955, 32.295236667624643 ] } },
{ "type": "Feature", "properties": { "NAME": "Kalamazoo", "STATE_NAME": "Michigan", "STATE_ABBR": "MI", "CityState": "Kalamazoo, MI", "Image": "kmi" }, "geometry": { "type": "Point", "coordinates": [ -85.587228666809196, 42.29170695626614 ] } },
{ "type": "Feature", "properties": { "NAME": "Saginaw", "STATE_NAME": "Michigan", "STATE_ABBR": "MI", "CityState": "Saginaw, MI", "Image": "sag" }, "geometry": { "type": "Point", "coordinates": [ -83.950806867490442, 43.419469902609364 ] } },
{ "type": "Feature", "properties": { "NAME": "Mankato", "STATE_NAME": "Minnesota", "STATE_ABBR": "MN", "CityState": "Mankato, MN", "Image": "mkm" }, "geometry": { "type": "Point", "coordinates": [ -93.999399616417307, 44.163577501962607 ] } },
{ "type": "Feature", "properties": { "NAME": "Red Wing", "STATE_NAME": "Minnesota", "STATE_ABBR": "MN", "CityState": "Red Wing, MN", "Image": "rwm" }, "geometry": { "type": "Point", "coordinates": [ -92.533801267898923, 44.562467588642583 ] } },
{ "type": "Feature", "properties": { "NAME": "Minneapolis", "STATE_NAME": "Minnesota", "STATE_ABBR": "MN", "CityState": "Minneapolis, MN", "Image": "mps" }, "geometry": { "type": "Point", "coordinates": [ -93.263836020663078, 44.979965348632454 ] } },
{ "type": "Feature", "properties": { "NAME": "Duluth", "STATE_NAME": "Minnesota", "STATE_ABBR": "MN", "CityState": "Duluth, MN", "Image": "dul" }, "geometry": { "type": "Point", "coordinates": [ -92.106578737482522, 46.783273108922756 ] } },
{ "type": "Feature", "properties": { "NAME": "Hannibal", "STATE_NAME": "Missouri", "STATE_ABBR": "MO", "CityState": "Hannibal, MO", "Image": "hmo" }, "geometry": { "type": "Point", "coordinates": [ -91.358481662772732, 39.708378868258407 ] } },
{ "type": "Feature", "properties": { "NAME": "Kansas City", "STATE_NAME": "Missouri", "STATE_ABBR": "MO", "CityState": "Kansas City, MO", "Image": "kc" }, "geometry": { "type": "Point", "coordinates": [ -94.578566738673103, 39.09972668046958 ] } },
{ "type": "Feature", "properties": { "NAME": "Saint Louis", "STATE_NAME": "Missouri", "STATE_ABBR": "MO", "CityState": "Saint Louis, MO", "Image": "stl" }, "geometry": { "type": "Point", "coordinates": [ -90.197888862307508, 38.627273264180054 ] } },
{ "type": "Feature", "properties": { "NAME": "Omaha", "STATE_NAME": "Nebraska", "STATE_ABBR": "NE", "CityState": "Omaha, NE", "Image": "omh" }, "geometry": { "type": "Point", "coordinates": [ -95.9377919360996, 41.258609655937882 ] } },
{ "type": "Feature", "properties": { "NAME": "Lincoln", "STATE_NAME": "Nebraska", "STATE_ABBR": "NE", "CityState": "Lincoln, NE", "Image": "lne" }, "geometry": { "type": "Point", "coordinates": [ -96.666959821910737, 40.800001111486814 ] } },
{ "type": "Feature", "properties": { "NAME": "Trenton", "STATE_NAME": "New Jersey", "STATE_ABBR": "NJ", "CityState": "Trenton, NJ", "Image": "tre" }, "geometry": { "type": "Point", "coordinates": [ -74.742938476812114, 40.217053449339453 ] } },
{ "type": "Feature", "properties": { "NAME": "Las Vegas", "STATE_NAME": "Nevada", "STATE_ABBR": "NV", "CityState": "Las Vegas, NV", "Image": "lv" }, "geometry": { "type": "Point", "coordinates": [ -115.137222965065689, 36.174970559866438 ] } },
{ "type": "Feature", "properties": { "NAME": "Binghamton", "STATE_NAME": "New York", "STATE_ABBR": "NY", "CityState": "Binghamton, NY", "Image": "bny" }, "geometry": { "type": "Point", "coordinates": [ -75.917973817125798, 42.098686678474728 ] } },
{ "type": "Feature", "properties": { "NAME": "Elmira", "STATE_NAME": "New York", "STATE_ABBR": "NY", "CityState": "Elmira, NY", "Image": "eny" }, "geometry": { "type": "Point", "coordinates": [ -76.807733772753792, 42.089796490995127 ] } },
{ "type": "Feature", "properties": { "NAME": "Poughkeepsie", "STATE_NAME": "New York", "STATE_ABBR": "NY", "CityState": "Poughkeepsie, NY", "Image": "pny" }, "geometry": { "type": "Point", "coordinates": [ -73.920970132742454, 41.700371247102993 ] } },
{ "type": "Feature", "properties": { "NAME": "Rochester", "STATE_NAME": "New York", "STATE_ABBR": "NY", "CityState": "Rochester, NY", "Image": "roc" }, "geometry": { "type": "Point", "coordinates": [ -77.615556755389932, 43.154784429206934 ] } },
{ "type": "Feature", "properties": { "NAME": "Rome", "STATE_NAME": "New York", "STATE_ABBR": "NY", "CityState": "Rome, NY", "Image": "rny" }, "geometry": { "type": "Point", "coordinates": [ -75.455730424708051, 43.212847296922611 ] } },
{ "type": "Feature", "properties": { "NAME": "Schenectady", "STATE_NAME": "New York", "STATE_ABBR": "NY", "CityState": "Schenectady, NY", "Image": "sch" }, "geometry": { "type": "Point", "coordinates": [ -73.939568700307049, 42.81424313064521 ] } },
{ "type": "Feature", "properties": { "NAME": "Syracuse", "STATE_NAME": "New York", "STATE_ABBR": "NY", "CityState": "Syracuse, NY", "Image": "syr" }, "geometry": { "type": "Point", "coordinates": [ -76.147424360732728, 43.048122046532377 ] } },
{ "type": "Feature", "properties": { "NAME": "Niagara Falls", "STATE_NAME": "New York", "STATE_ABBR": "NY", "CityState": "Niagara Falls, NY", "Image": "nfn" }, "geometry": { "type": "Point", "coordinates": [ -79.056711144535029, 43.09449992519589 ] } },
{ "type": "Feature", "properties": { "NAME": "Buffalo", "STATE_NAME": "New York", "STATE_ABBR": "NY", "CityState": "Buffalo, NY", "Image": "buf" }, "geometry": { "type": "Point", "coordinates": [ -78.878368831497966, 42.886446724142246 ] } },
{ "type": "Feature", "properties": { "NAME": "New York", "STATE_NAME": "New York", "STATE_ABBR": "NY", "CityState": "New York, NY", "Image": "nyc" }, "geometry": { "type": "Point", "coordinates": [ -74.005972927398957, 40.7142690294109 ] } },
{ "type": "Feature", "properties": { "NAME": "Canton", "STATE_NAME": "Ohio", "STATE_ABBR": "OH", "CityState": "Canton, OH", "Image": "coh" }, "geometry": { "type": "Point", "coordinates": [ -81.378447063599879, 40.798947328416538 ] } },
{ "type": "Feature", "properties": { "NAME": "Lima", "STATE_NAME": "Ohio", "STATE_ABBR": "OH", "CityState": "Lima, OH", "Image": "loh" }, "geometry": { "type": "Point", "coordinates": [ -84.105225573108669, 40.742550977650652 ] } },
{ "type": "Feature", "properties": { "NAME": "Mansfield", "STATE_NAME": "Ohio", "STATE_ABBR": "OH", "CityState": "Mansfield, OH", "Image": "moh" }, "geometry": { "type": "Point", "coordinates": [ -82.515447043539325, 40.758390007710865 ] } },
{ "type": "Feature", "properties": { "NAME": "Chillicothe", "STATE_NAME": "Ohio", "STATE_ABBR": "OH", "CityState": "Chillicothe, OH", "Image": "chl" }, "geometry": { "type": "Point", "coordinates": [ -82.982401914136787, 39.333119680675487 ] } },
{ "type": "Feature", "properties": { "NAME": "Akron", "STATE_NAME": "Ohio", "STATE_ABBR": "OH", "CityState": "Akron, OH", "Image": "akr" }, "geometry": { "type": "Point", "coordinates": [ -81.519005334833111, 41.081444632989225 ] } },
{ "type": "Feature", "properties": { "NAME": "Dayton", "STATE_NAME": "Ohio", "STATE_ABBR": "OH", "CityState": "Dayton, OH", "Image": "doh" }, "geometry": { "type": "Point", "coordinates": [ -84.191606977604309, 39.758947873147221 ] } },
{ "type": "Feature", "properties": { "NAME": "Hamilton", "STATE_NAME": "Ohio", "STATE_ABBR": "OH", "CityState": "Hamilton, OH", "Image": "hoh" }, "geometry": { "type": "Point", "coordinates": [ -84.561335501048092, 39.399500729506613 ] } },
{ "type": "Feature", "properties": { "NAME": "Portland", "STATE_NAME": "Oregon", "STATE_ABBR": "OR", "CityState": "Portland, OR", "Image": "por" }, "geometry": { "type": "Point", "coordinates": [ -122.676207077736592, 45.523451525131826 ] } },
{ "type": "Feature", "properties": { "NAME": "Toledo", "STATE_NAME": "Ohio", "STATE_ABBR": "OH", "CityState": "Toledo, OH", "Image": "tol" }, "geometry": { "type": "Point", "coordinates": [ -83.55521206725679, 41.663938332343385 ] } },
{ "type": "Feature", "properties": { "NAME": "Oklahoma City", "STATE_NAME": "Oklahoma", "STATE_ABBR": "OK", "CityState": "Oklahoma City, OK", "Image": "okc" }, "geometry": { "type": "Point", "coordinates": [ -97.516427682359947, 35.467560273004651 ] } },
{ "type": "Feature", "properties": { "NAME": "Johnstown", "STATE_NAME": "Pennsylvania", "STATE_ABBR": "PA", "CityState": "Johnstown, PA", "Image": "jpa" }, "geometry": { "type": "Point", "coordinates": [ -78.920208487988617, 40.323470739952121 ] } },
{ "type": "Feature", "properties": { "NAME": "Lancaster", "STATE_NAME": "Pennsylvania", "STATE_ABBR": "PA", "CityState": "Lancaster, PA", "Image": "lpa" }, "geometry": { "type": "Point", "coordinates": [ -76.305514337298831, 40.037875560001417 ] } },
{ "type": "Feature", "properties": { "NAME": "Stroudsburg", "STATE_NAME": "Pennsylvania", "STATE_ABBR": "PA", "CityState": "Stroudsburg, PA", "Image": "spa" }, "geometry": { "type": "Point", "coordinates": [ -75.194624833682454, 40.986760941042661 ] } },
{ "type": "Feature", "properties": { "NAME": "Sharon", "STATE_NAME": "Pennsylvania", "STATE_ABBR": "PA", "CityState": "Sharon, PA", "Image": "sha" }, "geometry": { "type": "Point", "coordinates": [ -80.493403552921762, 41.233111582376324 ] } },
{ "type": "Feature", "properties": { "NAME": "York", "STATE_NAME": "Pennsylvania", "STATE_ABBR": "PA", "CityState": "York, PA", "Image": "yor" }, "geometry": { "type": "Point", "coordinates": [ -76.727744932580137, 39.962598363566485 ] } },
{ "type": "Feature", "properties": { "NAME": "Allentown", "STATE_NAME": "Pennsylvania", "STATE_ABBR": "PA", "CityState": "Allentown, PA", "Image": "apa" }, "geometry": { "type": "Point", "coordinates": [ -75.465733974112737, 40.607009234271281 ] } },
{ "type": "Feature", "properties": { "NAME": "Philadelphia", "STATE_NAME": "Pennsylvania", "STATE_ABBR": "PA", "CityState": "Philadelphia, PA", "Image": "phl" }, "geometry": { "type": "Point", "coordinates": [ -75.163788972223216, 39.952335029694922 ] } },
{ "type": "Feature", "properties": { "NAME": "Hazelton", "STATE_NAME": "Pennsylvania", "STATE_ABBR": "PA", "CityState": "Hazelton, PA", "Image": "hpa" }, "geometry": { "type": "Point", "coordinates": [ -75.985683378834281, 40.964426506021908 ] } },
{ "type": "Feature", "properties": { "NAME": "Pittsburgh", "STATE_NAME": "Pennsylvania", "STATE_ABBR": "PA", "CityState": "Pittsburgh, PA", "Image": "pgh" }, "geometry": { "type": "Point", "coordinates": [ -79.995886324342223, 40.440624827100578 ] } },
{ "type": "Feature", "properties": { "NAME": "Beaver Falls", "STATE_NAME": "Pennsylvania", "STATE_ABBR": "PA", "CityState": "Beaver Falls, PA", "Image": "bfp" }, "geometry": { "type": "Point", "coordinates": [ -80.319229518967234, 40.752009694755287 ] } },
{ "type": "Feature", "properties": { "NAME": "Charleston", "STATE_NAME": "South Carolina", "STATE_ABBR": "SC", "CityState": "Charleston, SC", "Image": "csc" }, "geometry": { "type": "Point", "coordinates": [ -79.930921632803503, 32.776565521394744 ] } },
{ "type": "Feature", "properties": { "NAME": "Memphis", "STATE_NAME": "Tennessee", "STATE_ABBR": "TN", "CityState": "Memphis, TN", "Image": "mem" }, "geometry": { "type": "Point", "coordinates": [ -90.048980125952752, 35.149534336960635 ] } },
{ "type": "Feature", "properties": { "NAME": "Nashville", "STATE_NAME": "Tennessee", "STATE_ABBR": "TN", "CityState": "Nashville, TN", "Image": "nsh" }, "geometry": { "type": "Point", "coordinates": [ -86.78444311930032, 36.165889979530462 ] } },
{ "type": "Feature", "properties": { "NAME": "Beaumont", "STATE_NAME": "Texas", "STATE_ABBR": "TX", "CityState": "Beaumont, TX", "Image": "btx" }, "geometry": { "type": "Point", "coordinates": [ -94.101846039015726, 30.086045924130737 ] } },
{ "type": "Feature", "properties": { "NAME": "Waco", "STATE_NAME": "Texas", "STATE_ABBR": "TX", "CityState": "Waco, TX", "Image": "wtx" }, "geometry": { "type": "Point", "coordinates": [ -97.146669523854172, 31.549333068931745 ] } },
{ "type": "Feature", "properties": { "NAME": "Dallas", "STATE_NAME": "Texas", "STATE_ABBR": "TX", "CityState": "Dallas, TX", "Image": "dal" }, "geometry": { "type": "Point", "coordinates": [ -96.806666623178458, 32.783055599971 ] } },
{ "type": "Feature", "properties": { "NAME": "Fort Worth", "STATE_NAME": "Texas", "STATE_ABBR": "TX", "CityState": "Fort Worth, TX", "Image": "ftw" }, "geometry": { "type": "Point", "coordinates": [ -97.320849517932899, 32.725408947595255 ] } },
{ "type": "Feature", "properties": { "NAME": "Houston", "STATE_NAME": "Texas", "STATE_ABBR": "TX", "CityState": "Houston, TX", "Image": "hou" }, "geometry": { "type": "Point", "coordinates": [ -95.363271558452354, 29.763283676056169 ] } },
{ "type": "Feature", "properties": { "NAME": "Austin", "STATE_NAME": "Texas", "STATE_ABBR": "TX", "CityState": "Austin, TX", "Image": "aus" }, "geometry": { "type": "Point", "coordinates": [ -97.743060742810556, 30.267153072560355 ] } },
{ "type": "Feature", "properties": { "NAME": "Salt Lake City", "STATE_NAME": "Utah", "STATE_ABBR": "UT", "CityState": "Salt Lake City, UT", "Image": "slc" }, "geometry": { "type": "Point", "coordinates": [ -111.891047445481931, 40.760779355278849 ] } },
{ "type": "Feature", "properties": { "NAME": "Lynchburg", "STATE_NAME": "Virginia", "STATE_ABBR": "VA", "CityState": "Lynchburg, VA", "Image": "lva" }, "geometry": { "type": "Point", "coordinates": [ -79.142246376953352, 37.413753567469094 ] } },
{ "type": "Feature", "properties": { "NAME": "Longview", "STATE_NAME": "Washington", "STATE_ABBR": "WA", "CityState": "Longview, WA", "Image": "lwa" }, "geometry": { "type": "Point", "coordinates": [ -122.938167118789792, 46.138167642616644 ] } },
{ "type": "Feature", "properties": { "NAME": "Aberdeen", "STATE_NAME": "Washington", "STATE_ABBR": "WA", "CityState": "Aberdeen, WA", "Image": "awa" }, "geometry": { "type": "Point", "coordinates": [ -123.815721733411209, 46.975370726376283 ] } },
{ "type": "Feature", "properties": { "NAME": "Bellingham", "STATE_NAME": "Washington", "STATE_ABBR": "WA", "CityState": "Bellingham, WA", "Image": "bwa" }, "geometry": { "type": "Point", "coordinates": [ -122.488224926042832, 48.759552944787352 ] } },
{ "type": "Feature", "properties": { "NAME": "Burlington", "STATE_NAME": "Vermont", "STATE_ABBR": "VT", "CityState": "Burlington, VT", "Image": "bvt" }, "geometry": { "type": "Point", "coordinates": [ -73.21207196709787, 44.475882546570119 ] } },
{ "type": "Feature", "properties": { "NAME": "Seattle", "STATE_NAME": "Washington", "STATE_ABBR": "WA", "CityState": "Seattle, WA", "Image": "sea" }, "geometry": { "type": "Point", "coordinates": [ -122.332070830928529, 47.60620947649781 ] } },
{ "type": "Feature", "properties": { "NAME": "Spokane", "STATE_NAME": "Washington", "STATE_ABBR": "WA", "CityState": "Spokane, WA", "Image": "spo" }, "geometry": { "type": "Point", "coordinates": [ -117.426046581623794, 47.65878025532264 ] } },
{ "type": "Feature", "properties": { "NAME": "Tacoma", "STATE_NAME": "Washington", "STATE_ABBR": "WA", "CityState": "Tacoma, WA", "Image": "tac" }, "geometry": { "type": "Point", "coordinates": [ -122.444290532742116, 47.252876923608895 ] } },
{ "type": "Feature", "properties": { "NAME": "Kenosha", "STATE_NAME": "Wisconsin", "STATE_ABBR": "WI", "CityState": "Kenosha, WI", "Image": "kwi" }, "geometry": { "type": "Point", "coordinates": [ -87.821185366694607, 42.584742422659602 ] } },
{ "type": "Feature", "properties": { "NAME": "Sheboygan", "STATE_NAME": "Wisconsin", "STATE_ABBR": "WI", "CityState": "Sheboygan, WI", "Image": "swi" }, "geometry": { "type": "Point", "coordinates": [ -87.714529937498284, 43.750828470928703 ] } },
{ "type": "Feature", "properties": { "NAME": "Madison", "STATE_NAME": "Wisconsin", "STATE_ABBR": "WI", "CityState": "Madison, WI", "Image": "mad" }, "geometry": { "type": "Point", "coordinates": [ -89.401230185651116, 43.073051756027908 ] } },
{ "type": "Feature", "properties": { "NAME": "Honolulu", "STATE_NAME": "Hawaii", "STATE_ABBR": "HI", "CityState": "Honolulu, HI", "Image": "hon" }, "geometry": { "type": "Point", "coordinates": [ -157.85556748970393, 21.303803081701354 ] } },
{ "type": "Feature", "properties": { "NAME": "Cheyenne", "STATE_NAME": "Wyoming", "STATE_ABBR": "WY", "CityState": "Cheyenne, WY", "Image": "cwy" }, "geometry": { "type": "Point", "coordinates": [ -104.820246154552592, 41.139981330578756 ] } },
{ "type": "Feature", "properties": { "NAME": "Toronto", "STATE_NAME": "Ontario", "STATE_ABBR": "ON", "CityState": "Toronto, Ontario Canada", "Image": "tor" }, "geometry": { "type": "Point", "coordinates": [ -79.387982637224056, 43.653789890259695 ] } },
{ "type": "Feature", "properties": { "NAME": "Shanghai", "STATE_NAME": "China", "STATE_ABBR": "CHN", "CityState": "Shanghai, China", "Image": "shg" }, "geometry": { "type": "Point", "coordinates": [ 121.479159114006407, 31.245127488903311 ] } },
{ "type": "Feature", "properties": { "NAME": "Kiev", "STATE_NAME": "Ukraine", "STATE_ABBR": "UKR", "CityState": "Kiev, Ukraine", "Image": "knb" }, "geometry": { "type": "Point", "coordinates": [ 30.520447835734245, 50.460934429770219 ] } },
{ "type": "Feature", "properties": { "NAME": "Prague", "STATE_NAME": "Czech", "STATE_ABBR": "Cz", "CityState": "Prague", "Image": "pcz" }, "geometry": { "type": "Point", "coordinates": [ 14.420242866653828, 50.08738046737772 ] } },
{ "type": "Feature", "properties": { "NAME": "Milwaukee", "STATE_NAME": "Wisconsin", "STATE_ABBR": "WI", "CityState": "Milwaukee, WI", "Image": "mil" }, "geometry": { "type": "Point", "coordinates": [ -87.909724779594242, 43.044120548523345 ] } },
{ "type": "Feature", "properties": { "NAME": "Ithaca", "STATE_NAME": "New York", "STATE_ABBR": "NY", "CityState": "Ithaca, NY", "Image": "iny" }, "geometry": { "type": "Point", "coordinates": [ -76.500309858130706, 42.452407416364757 ] } },
{ "type": "Feature", "properties": { "NAME": "Oneonta", "STATE_NAME": "New York", "STATE_ABBR": "NY", "CityState": "Oneonta, NY", "Image": "ony" }, "geometry": { "type": "Point", "coordinates": [ -75.058973723757575, 42.451629490029134 ] } },
{ "type": "Feature", "properties": { "NAME": "Kingston", "STATE_NAME": "New York", "STATE_ABBR": "NY", "CityState": "Kingston, NY", "Image": "kny" }, "geometry": { "type": "Point", "coordinates": [ -74.001001518150275, 41.927615706380266 ] } },
{ "type": "Feature", "properties": { "NAME": "Waterloo-Cedar Falls", "STATE_NAME": "Iowa", "STATE_ABBR": "IA", "CityState": "Waterloo-Cedar Falls, IA", "Image": "cfi" }, "geometry": { "type": "Point", "coordinates": [ -92.389124576509587, 42.512437802090666 ] } },
{ "type": "Feature", "properties": { "NAME": "Santa Rosa", "STATE_NAME": "California", "STATE_ABBR": "CA", "CityState": "Santa Rosa, CA", "Image": "src" }, "geometry": { "type": "Point", "coordinates": [ -122.718052124849763, 38.438781577038576 ] } },
{ "type": "Feature", "properties": { "NAME": "Ketchikan", "STATE_NAME": "Alaska", "STATE_ABBR": "AK", "CityState": "Ketchikan, AK", "Image": "kak" }, "geometry": { "type": "Point", "coordinates": [ -131.644896955870678, 55.343040965410012 ] } },
{ "type": "Feature", "properties": { "NAME": "Beloit", "STATE_NAME": "Wisconsin", "STATE_ABBR": "WI", "CityState": "Beloit, WI", "Image": "bwi" }, "geometry": { "type": "Point", "coordinates": [ -89.030031269705049, 42.508665363899524 ] } },
{ "type": "Feature", "properties": { "NAME": "Appleton", "STATE_NAME": "Wisconsin", "STATE_ABBR": "WI", "CityState": "Appleton, WI", "Image": "awi" }, "geometry": { "type": "Point", "coordinates": [ -88.402992704293339, 44.258102961398137 ] } },
{ "type": "Feature", "properties": { "NAME": "Fresno", "STATE_NAME": "California", "STATE_ABBR": "CA", "CityState": "Fresno, CA", "Image": "fca" }, "geometry": { "type": "Point", "coordinates": [ -119.800202116994541, 36.760002669286479 ] } },
{ "type": "Feature", "properties": { "NAME": "Atlanta", "STATE_NAME": "Georgia", "STATE_ABBR": "GA", "CityState": "Atlanta, GA", "Image": "atl" }, "geometry": { "type": "Point", "coordinates": [ -84.394551537312338, 33.73512466093198 ] } },
{ "type": "Feature", "properties": { "NAME": "Charleston", "STATE_NAME": "West Virginia", "STATE_ABBR": "WV", "CityState": "Charleston, WV", "Image": "cwv" }, "geometry": { "type": "Point", "coordinates": [ -81.63329674450128, 38.347963150787294 ] } },
{ "type": "Feature", "properties": { "NAME": "Montreal", "STATE_NAME": "Quebec", "STATE_ABBR": "QC", "CityState": "Montreal, QC", "Image": "mtl" }, "geometry": { "type": "Point", "coordinates": [ -73.594937405722106, 45.503764078785771 ] } },
{ "type": "Feature", "properties": { "NAME": "Saint Petersburg", "STATE_NAME": "Russia", "STATE_ABBR": "RU", "CityState": "Saint Petersburg, Russia", "Image": "stpru" }, "geometry": { "type": "Point", "coordinates": [ 30.299709490227414, 59.931096043450893 ] } },
{ "type": "Feature", "properties": { "NAME": "London", "STATE_NAME": "England", "STATE_ABBR": "UK", "CityState": "London, UK", "Image": "lnduk" }, "geometry": { "type": "Point", "coordinates": [ -0.102250828474265, 51.494121424745209 ] } },
{ "type": "Feature", "properties": { "NAME": "Paris", "STATE_NAME": "France", "STATE_ABBR": "FR", "CityState": "Paris, France", "Image": "parfr" }, "geometry": { "type": "Point", "coordinates": [ 2.341389477107109, 48.850381540791169 ] } },
{ "type": "Feature", "properties": { "NAME": "Moscow", "STATE_NAME": "Russia", "STATE_ABBR": "RU", "CityState": "Moscow, Russia", "Image": "mosru" }, "geometry": { "type": "Point", "coordinates": [ 37.691274367742139, 55.748703939115238 ] } },
{ "type": "Feature", "properties": { "NAME": "Mexico City", "STATE_NAME": "Mexico", "STATE_ABBR": "MX", "CityState": "Mexico City, MX", "Image": "mexmx" }, "geometry": { "type": "Point", "coordinates": [ -99.118904004729529, 19.421835604757241 ] } },
{ "type": "Feature", "properties": { "NAME": "Albuquerque", "STATE_NAME": "New Mexico", "STATE_ABBR": "NM", "CityState": "Albuquerque, NM", "Image": "abq" }, "geometry": { "type": "Point", "coordinates": [ -106.648485620178008, 35.071241462288967 ] } },
{ "type": "Feature", "properties": { "NAME": "Richmond", "STATE_NAME": "Virginia", "STATE_ABBR": "VA", "CityState": "Richmond, VA", "Image": "rva" }, "geometry": { "type": "Point", "coordinates": [ -77.455193762787957, 37.522714785274708 ] } },
{ "type": "Feature", "properties": { "NAME": "Jacksonville", "STATE_NAME": "Florida", "STATE_ABBR": "FL", "CityState": "Jacksonville, FL", "Image": "jax" }, "geometry": { "type": "Point", "coordinates": [ -81.667497042762236, 30.324292399291249 ] } },
{ "type": "Feature", "properties": { "NAME": "Cincinnati", "STATE_NAME": "Ohio", "STATE_ABBR": "OH", "CityState": "Cincinnati, OH", "Image": "cincy" }, "geometry": { "type": "Point", "coordinates": [ -84.518478593975757, 39.096543831559927 ] } },
{ "type": "Feature", "properties": { "NAME": "Culver City", "STATE_NAME": "California", "STATE_ABBR": "CA", "CityState": "Culver City, CA", "Image": "cca" }, "geometry": { "type": "Point", "coordinates": [ -118.396776854646873, 34.021079038938439 ] } },
{ "type": "Feature", "properties": { "NAME": "Istanbul", "STATE_NAME": "Turkey", "STATE_ABBR": "TR", "CityState": "Istanbul, TR", "Image": "isttr" }, "geometry": { "type": "Point", "coordinates": [ 28.974908980231678, 41.010616426420583 ] } },
{ "type": "Feature", "properties": { "NAME": "Pyongyang", "STATE_NAME": "North Korea", "STATE_ABBR": "KP", "CityState": "Pyongyang, KP", "Image": "pyokp" }, "geometry": { "type": "Point", "coordinates": [ 125.740755788962417, 39.017421105715258 ] } },
{ "type": "Feature", "properties": { "NAME": "Shenzhen", "STATE_NAME": "China", "STATE_ABBR": "CN", "CityState": "Shenzhen, CN", "Image": "shecn" }, "geometry": { "type": "Point", "coordinates": [ 114.056458829707012, 22.543588587142544 ] } },
{ "type": "Feature", "properties": { "NAME": "Jaipur", "STATE_NAME": "India", "STATE_ABBR": "IN", "CityState": "Jaipur, IN", "Image": "jaiin" }, "geometry": { "type": "Point", "coordinates": [ 75.830128163725945, 26.908835496184107 ] } },
{ "type": "Feature", "properties": { "NAME": "Delhi", "STATE_NAME": "India", "STATE_ABBR": "IN", "CityState": "Delhi, IN", "Image": "delin" }, "geometry": { "type": "Point", "coordinates": [ 77.224435506480589, 28.651040440934494 ] } },
{ "type": "Feature", "properties": { "NAME": "Tashkent", "STATE_NAME": "Uzbekistan", "STATE_ABBR": "UZ", "CityState": "Tashkent, UZ", "Image": "tasuz" }, "geometry": { "type": "Point", "coordinates": [ 69.278896203703439, 41.311792673839719 ] } },
{ "type": "Feature", "properties": { "NAME": "Almaty", "STATE_NAME": "Kazakhstan", "STATE_ABBR": "KZ", "CityState": "Almaty, KZ", "Image": "almkz" }, "geometry": { "type": "Point", "coordinates": [ 76.943030572215278, 43.233902344676295 ] } },
{ "type": "Feature", "properties": { "NAME": "Tblisi", "STATE_NAME": "Georgia", "STATE_ABBR": "GE", "CityState": "Tblisi, GE", "Image": "tbige" }, "geometry": { "type": "Point", "coordinates": [ 44.783755493106824, 41.699514239776676 ] } },
{ "type": "Feature", "properties": { "NAME": "Yerevan", "STATE_NAME": "Armenia", "STATE_ABBR": "AM", "CityState": "Yerevan, AM", "Image": "yeram" }, "geometry": { "type": "Point", "coordinates": [ 44.433755129207611, 40.134806730580195 ] } },
{ "type": "Feature", "properties": { "NAME": "Guatemala City", "STATE_NAME": "Guatemala", "STATE_ABBR": "GT", "CityState": "Guatemala, GT", "Image": "guagt" }, "geometry": { "type": "Point", "coordinates": [ -90.516872509311625, 14.623653846194193 ] } },
{ "type": "Feature", "properties": { "NAME": "Buenos Aires", "STATE_NAME": "Argentina", "STATE_ABBR": "AR", "CityState": "Buenos Aires, AR", "Image": "buear" }, "geometry": { "type": "Point", "coordinates": [ -58.406963367164906, -34.630315676710573 ] } },
{ "type": "Feature", "properties": { "NAME": "Porto Alegre", "STATE_NAME": "Brazil", "STATE_ABBR": "BR", "CityState": "Porto Alegre, BR", "Image": "palbr" }, "geometry": { "type": "Point", "coordinates": [ -51.224284001893778, -30.043531204470842 ] } },
{ "type": "Feature", "properties": { "NAME": "Santiago", "STATE_NAME": "Chile", "STATE_ABBR": "CL", "CityState": "Santiago, CL", "Image": "santiago" }, "geometry": { "type": "Point", "coordinates": [ -70.58314955102378, -33.549139282943983 ] } },
{ "type": "Feature", "properties": { "NAME": "Monterrey", "STATE_NAME": "Mexico", "STATE_ABBR": "MX", "CityState": "Monterrey, MX", "Image": "monmx" }, "geometry": { "type": "Point", "coordinates": [ -100.286091966066039, 25.673400377646828 ] } },
{ "type": "Feature", "properties": { "NAME": "Guadalajara", "STATE_NAME": "Mexico", "STATE_ABBR": "MX", "CityState": "Guadalajara, MX", "Image": "gjamx" }, "geometry": { "type": "Point", "coordinates": [ -103.330168465201467, 20.645853218441253 ] } },
{ "type": "Feature", "properties": { "NAME": "Cleveland", "STATE_NAME": "Ohio", "STATE_ABBR": "OH", "CityState": "Cleveland, OH", "Image": "cle" }, "geometry": { "type": "Point", "coordinates": [ -81.710725235169903, 41.504311874111551 ] } },
{ "type": "Feature", "properties": { "NAME": "Baku", "STATE_NAME": "Azerbaijan", "STATE_ABBR": "AZ", "CityState": "Baku, AZ", "Image": "baku" }, "geometry": { "type": "Point", "coordinates": [ 49.847160145145814, 40.402210407376195 ] } },
{ "type": "Feature", "properties": { "NAME": "Dnipro", "STATE_NAME": "Ukraine", "STATE_ABBR": "UA", "CityState": "Dnipro, UA", "Image": "dnukr" }, "geometry": { "type": "Point", "coordinates": [ 35.041319631076739, 48.482571517646754 ] } },
{ "type": "Feature", "properties": { "NAME": "Kharkiv", "STATE_NAME": "Ukraine", "STATE_ABBR": "UA", "CityState": "Kharkiv, UA", "Image": "khukr" }, "geometry": { "type": "Point", "coordinates": [ 36.249755317877181, 49.993116126147306 ] } },
{ "type": "Feature", "properties": { "NAME": "Samara", "STATE_NAME": "Russia", "STATE_ABBR": "RU", "CityState": "Samara, RU", "Image": "samara" }, "geometry": { "type": "Point", "coordinates": [ 50.114603911061089, 53.199251464394827 ] } },
{ "type": "Feature", "properties": { "NAME": "Minsk", "STATE_NAME": "Belarus", "STATE_ABBR": "BY", "CityState": "Minsk, BY", "Image": "minsk" }, "geometry": { "type": "Point", "coordinates": [ 27.56047655163287, 53.899684412221063 ] } }
]
}
